{
  "type": "FeatureCollection",
  "features": [
    {
      "type": "Feature",
      "properties": {
        "Name": "LABTEC"
      },
      "geometry": {
        "coordinates": [
          -40.8330035,
          -14.8640124
        ],
        "type": "Point"
      }
    },
    {
      "type": "Feature",
      "properties": {
        "Name": "Laboratório Anatomia Peças Úmidas"
      },
      "geometry": {
        "coordinates": [
          -40.8333019,
          -14.8638218
        ],
        "type": "Point"
      }
    },
    {
      "type": "Feature",
      "properties": {
        "Name": "Laboratório de Habilidades 01"
      },
      "geometry": {
        "coordinates": [
          -40.8332912,
          -14.8638429
        ],
        "type": "Point"
      }
    },
    {
      "type": "Feature",
      "properties": {
        "Name": "Laboratório Habilidades 02"
      },
      "geometry": {
        "coordinates": [
          -40.8332309,
          -14.8639523
        ],
        "type": "Point"
      }
    },
    {
      "type": "Feature",
      "properties": {
        "Name": "Laboratório Morfofuncional 01"
      },
      "geometry": {
        "coordinates": [
          -40.8332177,
          -14.863978
        ],
        "type": "Point"
      }
    },
    {
      "type": "Feature",
      "properties": {
        "Name": "Laboratório Morfofuncional 02"
      },
      "geometry": {
        "coordinates": [
          -40.8331904,
          -14.8640403
        ],
        "type": "Point"
      }
    },
    {
      "type": "Feature",
      "properties": {
        "Name": "Laboratório Multidisciplinar "
      },
      "geometry": {
        "coordinates": [
          -40.8331672,
          -14.8640729
        ],
        "type": "Point"
      }
    },
    {
      "type": "Feature",
      "properties": {
        "Name": "NAP - Núcleo de Apoio Pedagógico "
      },
      "geometry": {
        "coordinates": [
          -40.8331192,
          -14.8641452
        ],
        "type": "Point"
      }
    },
    {
      "type": "Feature",
      "properties": {
        "Name": "Banheiro Acessível "
      },
      "geometry": {
        "coordinates": [
          -40.8330444,
          -14.8641493
        ],
        "type": "Point"
      }
    },
    {
      "type": "Feature",
      "properties": {
        "Name": "LABCAST"
      },
      "geometry": {
        "coordinates": [
          -40.8330304,
          -14.8639689
        ],
        "type": "Point"
      }
    },
    {
      "type": "Feature",
      "properties": {
        "Name": "Laboratório De Práticas Cirúrgicas"
      },
      "geometry": {
        "coordinates": [
          -40.8331209,
          -14.863768
        ],
        "type": "Point"
      }
    },
    {
      "type": "Feature",
      "properties": {
        "Name": "Laboratório de Simulações Realísticas"
      },
      "geometry": {
        "coordinates": [
          -40.8330731,
          -14.8638816
        ],
        "type": "Point"
      }
    },
    {
      "type": "Feature",
      "properties": {
        "Name": "Sala de Antedimento 02"
      },
      "geometry": {
        "coordinates": [
          -40.8332748,
          -14.86414
        ],
        "type": "Point"
      }
    },
    {
      "type": "Feature",
      "properties": {
        "Name": "Tutorial 06"
      },
      "geometry": {
        "coordinates": [
          -40.8332555,
          -14.8641073
        ],
        "type": "Point"
      }
    },
    {
      "type": "Feature",
      "properties": {
        "Name": "Tutorial 05"
      },
      "geometry": {
        "coordinates": [
          -40.8332846,
          -14.8641235
        ],
        "type": "Point"
      }
    },
    {
      "type": "Feature",
      "properties": {
        "Name": "Tutorial 04"
      },
      "geometry": {
        "coordinates": [
          -40.8333347,
          -14.8641401
        ],
        "type": "Point"
      }
    },
    {
      "type": "Feature",
      "properties": {
        "Name": "Tutorial 03"
      },
      "geometry": {
        "coordinates": [
          -40.8333655,
          -14.8641508
        ],
        "type": "Point"
      }
    },
    {
      "type": "Feature",
      "properties": {
        "Name": "Coordenação "
      },
      "geometry": {
        "coordinates": [
          -40.8333551,
          -14.864172
        ],
        "type": "Point"
      }
    },
    {
      "type": "Feature",
      "properties": {
        "Name": "Tutorial 02"
      },
      "geometry": {
        "coordinates": [
          -40.8333838,
          -14.8641631
        ],
        "type": "Point"
      }
    },
    {
      "type": "Feature",
      "properties": {
        "Name": "Sala de Professor Tempo Integral"
      },
      "geometry": {
        "coordinates": [
          -40.833373,
          -14.8641815
        ],
        "type": "Point"
      }
    },
    {
      "type": "Feature",
      "properties": {
        "Name": "Tutorial 01"
      },
      "geometry": {
        "coordinates": [
          -40.8334019,
          -14.8641707
        ],
        "type": "Point"
      }
    },
    {
      "type": "Feature",
      "properties": {
        "Name": "Sala dos Professores "
      },
      "geometry": {
        "coordinates": [
          -40.833395,
          -14.8641945
        ],
        "type": "Point"
      }
    }
  ]
}